{"aibonito":{"name":"aibonito","zip":"00705","coordinates":[18.14,-66.26],"population":8947},"anasco":{"name":"anasco","zip":"00610","coordinates":[18.28,-67.14],"population":6136},"angeles":{"name":"angeles","zip":"00611","coordinates":[18.28,-66.79]},"arecibo":{"name":"arecibo","zip":"00614","coordinates":[18.45,-66.73],"population":49318},"adjuntas":{"name":"adjuntas","zip":"00601","coordinates":[18.16,-66.72],"population":5080},"castaner":{"name":"castaner","zip":"00631","coordinates":[18.19,-66.82]},"aguada":{"name":"aguada","zip":"00602","coordinates":[18.38,-67.18],"population":4040},"aguadilla":{"name":"aguadilla","zip":"00605","coordinates":[18.43,-67.15],"population":16073},"aguas buenas":{"name":"aguas buenas","zip":"00703","coordinates":[18.25,-66.1],"population":4576},"aguirre":{"name":"aguirre","zip":"00704","coordinates":[17.96,-66.22]},"arroyo":{"name":"arroyo","zip":"00714","coordinates":[17.97,-66.06],"population":7520},"bajadero":{"name":"bajadero","zip":"00616","coordinates":[18.4,-66.66]},"barceloneta":{"name":"barceloneta","zip":"00617","coordinates":[18.45,-66.53],"population":22322},"barranquitas":{"name":"barranquitas","zip":"00794","coordinates":[18.18,-66.3],"population":3021},"boqueron":{"name":"boqueron","zip":"00622","coordinates":[17.99,-67.15]},"cabo rojo":{"name":"cabo rojo","zip":"00623","coordinates":[18.08,-67.14],"population":10839},"camuy":{"name":"camuy","zip":"00627","coordinates":[18.48,-66.84],"population":4240},"canovanas":{"name":"canovanas","zip":"00729","coordinates":[18.37,-65.9],"population":8437},"carolina":{"name":"carolina","zip":"00988","coordinates":[18.4,-65.98],"population":170404},"cayey":{"name":"cayey","zip":"00737","coordinates":[18.11,-66.16],"population":18494},"cidra":{"name":"cidra","zip":"00739","coordinates":[18.17,-66.15],"population":5067},"coamo":{"name":"coamo","zip":"00769","coordinates":[18.08,-66.36],"population":11940},"comerio":{"name":"comerio","zip":"00782","coordinates":[18.22,-66.22],"population":4649},"corozal":{"name":"corozal","zip":"00783","coordinates":[18.34,-66.31],"population":11297},"hatillo":{"name":"hatillo","zip":"00659","coordinates":[18.48,-66.82],"population":5622},"hormigueros":{"name":"hormigueros","zip":"00660","coordinates":[18.14,-67.12],"population":11934},"humacao":{"name":"humacao","zip":"00792","coordinates":[18.15,-65.81],"population":20387},"isabela":{"name":"isabela","zip":"00662","coordinates":[18.5,-67.02],"population":12505},"jayuya":{"name":"jayuya","zip":"00664","coordinates":[18.22,-66.59],"population":3587},"juana diaz":{"name":"juana diaz","zip":"00795","coordinates":[18.05,-66.5],"population":9427},"juncos":{"name":"juncos","zip":"00777","coordinates":[18.22,-65.91],"population":8905},"ponce":{"name":"ponce","zip":"00734","coordinates":[17.98,-66.6],"population":152634},"caguas":{"name":"caguas","zip":"00727","coordinates":[18.23,-66.03],"population":86804},"ceiba":{"name":"ceiba","zip":"00735","coordinates":[18.26,-65.64],"population":6277},"roosevelt roads":{"name":"roosevelt roads","zip":"00742","coordinates":[18.27,-65.65]},"ciales":{"name":"ciales","zip":"00638","coordinates":[18.33,-66.47],"population":3256},"coto laurel":{"name":"coto laurel","zip":"00780","coordinates":[18.09,-66.57]},"culebra":{"name":"culebra","zip":"00775","coordinates":[18.31,-65.3],"population":1486},"dorado":{"name":"dorado","zip":"00646","coordinates":[18.47,-66.27],"population":13117},"ensenada":{"name":"ensenada","zip":"00647","coordinates":[17.96,-66.94]},"fajardo":{"name":"fajardo","zip":"00738","coordinates":[18.33,-65.65],"population":34068},"florida":{"name":"florida","zip":"00650","coordinates":[18.36,-66.56],"population":5652},"garrochales":{"name":"garrochales","zip":"00652","coordinates":[18.45,-66.6]},"guanica":{"name":"guanica","zip":"00653","coordinates":[17.97,-66.93],"population":9224},"guayama":{"name":"guayama","zip":"00785","coordinates":[17.97,-66.11],"population":21575},"guayanilla":{"name":"guayanilla","zip":"00656","coordinates":[18.02,-66.79],"population":5213},"guaynabo":{"name":"guaynabo","zip":"00971","coordinates":[18.38,-66.11],"population":81360},"gurabo":{"name":"gurabo","zip":"00778","coordinates":[18.25,-65.97],"population":8973},"lajas":{"name":"lajas","zip":"00667","coordinates":[18.04,-67.06],"population":5255},"la plata":{"name":"la plata","zip":"00786","coordinates":[18.16,-66.23]},"lares":{"name":"lares","zip":"00669","coordinates":[18.29,-66.88],"population":7184},"las marias":{"name":"las marias","zip":"00670","coordinates":[18.27,-67.06],"population":1031},"las piedras":{"name":"las piedras","zip":"00771","coordinates":[18.18,-65.86],"population":6655},"san juan":{"name":"san juan","zip":"00975","coordinates":[18.4,-66.06],"population":418140},"fort buchanan":{"name":"fort buchanan","zip":"00934","coordinates":[18.41,-66.11]},"loiza":{"name":"loiza","zip":"00772","coordinates":[18.43,-65.88],"population":4311},"luquillo":{"name":"luquillo","zip":"00773","coordinates":[18.37,-65.71],"population":8326},"manati":{"name":"manati","zip":"00674","coordinates":[18.43,-66.48],"population":16092},"maricao":{"name":"maricao","zip":"00606","coordinates":[18.18,-66.98],"population":1172},"maunabo":{"name":"maunabo","zip":"00707","coordinates":[18,-65.9],"population":2154},"rosario":{"name":"rosario","zip":"00636","coordinates":[18.15,-67.06]},"mayaguez":{"name":"mayaguez","zip":"00682","coordinates":[18.2,-67.14],"population":78647},"mercedita":{"name":"mercedita","zip":"00715","coordinates":[18,-66.56]},"moca":{"name":"moca","zip":"00676","coordinates":[18.39,-67.11],"population":4964},"morovis":{"name":"morovis","zip":"00687","coordinates":[18.32,-66.4],"population":2414},"naguabo":{"name":"naguabo","zip":"00718","coordinates":[18.21,-65.73],"population":4643},"naranjito":{"name":"naranjito","zip":"00719","coordinates":[18.3,-66.24],"population":2005},"orocovis":{"name":"orocovis","zip":"00720","coordinates":[18.22,-66.39],"population":944},"patillas":{"name":"patillas","zip":"00723","coordinates":[18,-66.01],"population":4247},"penuelas":{"name":"penuelas","zip":"00624","coordinates":[18.06,-66.72],"population":6847},"puerto real":{"name":"puerto real","zip":"00740","coordinates":[18.33,-65.63],"population":6166},"punta santiago":{"name":"punta santiago","zip":"00741","coordinates":[18.15,-65.76],"population":5803},"quebradillas":{"name":"quebradillas","zip":"00678","coordinates":[18.47,-66.93],"population":5620},"rincon":{"name":"rincon","zip":"00677","coordinates":[18.34,-67.25],"population":1499},"rio blanco":{"name":"rio blanco","zip":"00744","coordinates":[18.22,-65.79]},"palmer":{"name":"palmer","zip":"00721","coordinates":[18.37,-65.77]},"rio grande":{"name":"rio grande","zip":"00745","coordinates":[18.38,-65.83],"population":13467},"sabana grande":{"name":"sabana grande","zip":"00637","coordinates":[18.08,-66.96],"population":8961},"sabana hoyos":{"name":"sabana hoyos","zip":"00688","coordinates":[18.38,-66.62]},"sabana seca":{"name":"sabana seca","zip":"00952","coordinates":[18.42,-66.19],"population":6247},"salinas":{"name":"salinas","zip":"00751","coordinates":[17.97,-66.29],"population":6375},"san antonio":{"name":"san antonio","zip":"00690","coordinates":[18.49,-67.09],"population":6456},"san german":{"name":"san german","zip":"00683","coordinates":[18.08,-67.04],"population":12055},"bayamon":{"name":"bayamon","zip":"00961","coordinates":[18.41,-66.15],"population":203499},"catano":{"name":"catano","zip":"00963","coordinates":[18.43,-66.11],"population":28093},"trujillo alto":{"name":"trujillo alto","zip":"00977","coordinates":[18.36,-66.01],"population":54189},"saint just":{"name":"saint just","zip":"00978","coordinates":[18.37,-66.01]},"san lorenzo":{"name":"san lorenzo","zip":"00754","coordinates":[18.19,-65.96],"population":9373},"san sebastian":{"name":"san sebastian","zip":"00685","coordinates":[18.33,-66.99],"population":11590},"santa isabel":{"name":"santa isabel","zip":"00757","coordinates":[17.97,-66.4],"population":7260},"toa alta":{"name":"toa alta","zip":"00954","coordinates":[18.39,-66.25],"population":4483},"toa baja":{"name":"toa baja","zip":"00951","coordinates":[18.44,-66.25],"population":1889},"utuado":{"name":"utuado","zip":"00641","coordinates":[18.27,-66.7],"population":9844},"vega alta":{"name":"vega alta","zip":"00692","coordinates":[18.41,-66.32],"population":12036},"vega baja":{"name":"vega baja","zip":"00694","coordinates":[18.44,-66.39],"population":29325},"vieques":{"name":"vieques","zip":"00765","coordinates":[18.42,-65.83]},"villalba":{"name":"villalba","zip":"00766","coordinates":[18.13,-66.48],"population":4555},"yabucoa":{"name":"yabucoa","zip":"00767","coordinates":[18.04,-65.87],"population":6952},"yauco":{"name":"yauco","zip":"00698","coordinates":[18.03,-66.86],"population":20295},"levittown":{"name":"levittown","population":29785},"candelaria":{"name":"candelaria","population":17631},"pajaros":{"name":"pajaros","population":9466},"isabel segunda":{"name":"isabel segunda","population":9301},"san isidro":{"name":"san isidro","population":8071},"campanilla":{"name":"campanilla","population":7757},"estancias de florida":{"name":"estancias de florida","population":5972},"candelaria arenas":{"name":"candelaria arenas","population":5854},"coco":{"name":"coco","population":5803},"ingenio":{"name":"ingenio","population":5664},"santa barbara":{"name":"santa barbara","population":5168}}